{"id":153,"states":[{"id":4656,"cities":[{"id":79762,"name":"Arijejen","latitude":"-0.52545000","longitude":"166.91247000"}]},{"id":4658,"cities":[{"id":79761,"name":"Anabar","latitude":"-0.50845000","longitude":"166.95326000"}]},{"id":4667,"cities":[]},{"id":4663,"cities":[]},{"id":4660,"cities":[{"id":79763,"name":"Baiti","latitude":"-0.50803000","longitude":"166.92945000"}]},{"id":4665,"cities":[]},{"id":4662,"cities":[]},{"id":4666,"cities":[]},{"id":4654,"cities":[]},{"id":4661,"cities":[{"id":79764,"name":"Ijuw","latitude":"-0.52100000","longitude":"166.95813000"}]},{"id":4657,"cities":[{"id":79765,"name":"Menen","latitude":"-0.54539000","longitude":"166.94871000"}]},{"id":4659,"cities":[]},{"id":4655,"cities":[{"id":79766,"name":"Uaboe","latitude":"-0.51393000","longitude":"166.92384000"}]},{"id":4664,"cities":[{"id":79767,"name":"Yaren","latitude":"-0.55085000","longitude":"166.92520000"}]}]}