{"id":17,"states":[{"id":3601,"cities":[]},{"id":3628,"cities":[]},{"id":3593,"cities":[]},{"id":3629,"cities":[{"id":15686,"name":"Alice Town","latitude":"25.72800000","longitude":"-79.29721000"}]},{"id":3605,"cities":[]},{"id":3611,"cities":[{"id":15688,"name":"Arthur’s Town","latitude":"24.62240000","longitude":"-75.67151000"}]},{"id":3603,"cities":[{"id":15699,"name":"Marsh Harbour","latitude":"26.54124000","longitude":"-77.06360000"}]},{"id":3631,"cities":[]},{"id":3596,"cities":[]},{"id":3621,"cities":[{"id":15691,"name":"Colonel Hill","latitude":"22.75450000","longitude":"-74.20415000"}]},{"id":3614,"cities":[{"id":15697,"name":"High Rock","latitude":"26.60999000","longitude":"-78.27863000"}]},{"id":3612,"cities":[{"id":15696,"name":"George Town","latitude":"23.51616000","longitude":"-75.78665000"}]},{"id":3626,"cities":[{"id":15695,"name":"Freeport","latitude":"26.53333000","longitude":"-78.70000000"},{"id":15698,"name":"Lucaya","latitude":"26.53333000","longitude":"-78.66667000"}]},{"id":3619,"cities":[]},{"id":3597,"cities":[]},{"id":3632,"cities":[]},{"id":3595,"cities":[]},{"id":3613,"cities":[{"id":15694,"name":"Dunmore Town","latitude":"25.50216000","longitude":"-76.63633000"}]},{"id":3598,"cities":[]},{"id":3624,"cities":[]},{"id":3609,"cities":[{"id":15700,"name":"Matthew Town","latitude":"20.94982000","longitude":"-73.67346000"}]},{"id":3618,"cities":[]},{"id":3610,"cities":[{"id":15689,"name":"Clarence Town","latitude":"23.10000000","longitude":"-74.98333000"}]},{"id":3625,"cities":[]},{"id":3604,"cities":[]},{"id":3633,"cities":[{"id":15685,"name":"Abraham’s Bay","latitude":"22.36667000","longitude":"-72.96667000"}]},{"id":4881,"cities":[{"id":143913,"name":"Nassau","latitude":"25.06666667","longitude":"-77.33333333"}]},{"id":3594,"cities":[]},{"id":3616,"cities":[{"id":15692,"name":"Cooper’s Town","latitude":"26.87137000","longitude":"-77.51131000"}]},{"id":3617,"cities":[{"id":15687,"name":"Andros Town","latitude":"24.70502000","longitude":"-77.76912000"},{"id":15702,"name":"San Andros","latitude":"25.06667000","longitude":"-78.05000000"}]},{"id":3602,"cities":[]},{"id":3615,"cities":[{"id":15693,"name":"Duncan Town","latitude":"22.19083000","longitude":"-75.72583000"}]},{"id":3623,"cities":[]},{"id":3600,"cities":[{"id":15701,"name":"Port Nelson","latitude":"23.64967000","longitude":"-74.84157000"}]},{"id":3620,"cities":[]},{"id":3627,"cities":[{"id":15690,"name":"Cockburn Town","latitude":"24.05179000","longitude":"-74.53138000"}]},{"id":3606,"cities":[]},{"id":3608,"cities":[]},{"id":3622,"cities":[]},{"id":3607,"cities":[]},{"id":3630,"cities":[{"id":15703,"name":"Spanish Wells","latitude":"25.54717000","longitude":"-76.76405000"}]},{"id":3599,"cities":[{"id":15704,"name":"West End","latitude":"26.68711000","longitude":"-78.97702000"}]}]}