{"id":202,"states":[{"id":4784,"cities":[{"id":102905,"name":"Tulagi","latitude":"-9.10306000","longitude":"160.15056000"}]},{"id":4781,"cities":[]},{"id":4785,"cities":[{"id":102902,"name":"Honiara","latitude":"-9.43333000","longitude":"159.95000000"}]},{"id":4778,"cities":[]},{"id":4780,"cities":[{"id":102900,"name":"Buala","latitude":"-8.14497000","longitude":"159.59212000"}]},{"id":4782,"cities":[{"id":102903,"name":"Kirakira","latitude":"-10.45442000","longitude":"161.92045000"}]},{"id":4783,"cities":[{"id":102899,"name":"Auki","latitude":"-8.76778000","longitude":"160.69778000"}]},{"id":4787,"cities":[]},{"id":4779,"cities":[{"id":102904,"name":"Lata","latitude":"-10.72500000","longitude":"165.79722000"}]},{"id":4786,"cities":[{"id":102901,"name":"Gizo","latitude":"-8.10303000","longitude":"156.84186000"}]}]}