{"id":26,"states":[{"id":240,"cities":[{"id":15709,"name":"Jakar","latitude":"27.54918000","longitude":"90.75250000"}]},{"id":239,"cities":[{"id":15706,"name":"Daphu","latitude":"26.96667000","longitude":"89.38333000"},{"id":15716,"name":"Phuntsholing","latitude":"26.85164000","longitude":"89.38837000"},{"id":15726,"name":"Tsimasham","latitude":"27.09890000","longitude":"89.53604000"}]},{"id":238,"cities":[{"id":15705,"name":"Daga","latitude":"27.07529000","longitude":"89.87688000"},{"id":15728,"name":"Wangdue Phodrang","latitude":"27.48615000","longitude":"89.89915000"}]},{"id":229,"cities":[{"id":15707,"name":"Gasa","latitude":"27.90372000","longitude":"89.72689000"}]},{"id":232,"cities":[{"id":15708,"name":"Ha","latitude":"27.38747000","longitude":"89.28074000"}]},{"id":234,"cities":[{"id":15710,"name":"Lhuentse","latitude":"27.66787000","longitude":"91.18393000"}]},{"id":242,"cities":[{"id":15711,"name":"Mongar","latitude":"27.27471000","longitude":"91.23963000"}]},{"id":237,"cities":[{"id":15714,"name":"Paro","latitude":"27.43050000","longitude":"89.41334000"}]},{"id":244,"cities":[{"id":15715,"name":"Pemagatshel","latitude":"27.03795000","longitude":"91.40305000"}]},{"id":235,"cities":[{"id":15712,"name":"Pajo","latitude":"27.53333000","longitude":"89.88333000"},{"id":15717,"name":"Punākha","latitude":"27.59137000","longitude":"89.87743000"}]},{"id":243,"cities":[{"id":15718,"name":"Samdrup Jongkhar","latitude":"26.80069000","longitude":"91.50519000"}]},{"id":246,"cities":[{"id":15719,"name":"Samtse","latitude":"26.89903000","longitude":"89.09951000"}]},{"id":247,"cities":[{"id":15720,"name":"Sarpang","latitude":"26.86395000","longitude":"90.26745000"}]},{"id":241,"cities":[{"id":15722,"name":"Thimphu","latitude":"27.46609000","longitude":"89.64191000"}]},{"id":236,"cities":[{"id":15724,"name":"Trashigang","latitude":"27.33310000","longitude":"91.55424000"}]},{"id":245,"cities":[]},{"id":230,"cities":[{"id":15725,"name":"Trongsa","latitude":"27.50260000","longitude":"90.50716000"},{"id":15727,"name":"Tsirang","latitude":"27.02190000","longitude":"90.12291000"}]},{"id":231,"cities":[{"id":15723,"name":"Trashi Yangtse","latitude":"27.61160000","longitude":"91.49800000"}]},{"id":233,"cities":[{"id":15713,"name":"Panbang","latitude":"26.86667000","longitude":"90.98333000"},{"id":15721,"name":"Shemgang","latitude":"27.21689000","longitude":"90.65793000"}]}]}