{"id":87,"states":[{"id":3867,"cities":[{"id":52030,"name":"Hillsborough","latitude":"12.48292000","longitude":"-61.45597000"}]},{"id":3865,"cities":[{"id":52029,"name":"Grenville","latitude":"12.12278000","longitude":"-61.62498000"}]},{"id":3869,"cities":[{"id":52031,"name":"Saint David’s","latitude":"12.04903000","longitude":"-61.66875000"}]},{"id":3864,"cities":[{"id":52032,"name":"Saint George's","latitude":"12.05288000","longitude":"-61.75226000"}]},{"id":3868,"cities":[{"id":52028,"name":"Gouyave","latitude":"12.16462000","longitude":"-61.72965000"}]},{"id":3866,"cities":[{"id":52034,"name":"Victoria","latitude":"12.19021000","longitude":"-61.70677000"}]},{"id":3863,"cities":[{"id":52033,"name":"Sauteurs","latitude":"12.21833000","longitude":"-61.63917000"}]}]}